[
    {
        "id": 12,
        "lat": 37.7644386775717,
        "lng": -122.431254386901,
        "spaces": 3,
        "free": true,
        "address": "3506 16th Street, San Francisco, CA 94103, USA"
    },
    {
        "id": 157,
        "lat": 37.761181700917085,
        "lng": -122.43179082870483,
        "spaces": 2,
        "free": true,
        "address": "3948 18th Street, San Francisco, CA 94114, USA"
    },
    {
        "id": 0,
        "lat": 37.76102054470269,
        "lng": -122.43415117263794,
        "spaces": 8,
        "free": false,
        "address": "4053 18th Street, San Francisco, CA 94110, USA"
    },
    {
        "id": 1,
        "lat": 37.7608424242677,
        "lng": -122.435588836669,
        "spaces": 6,
        "free": false,
        "address": "4147-4159 18th Street, San Francisco, CA 94114, USA"
    },
    {
        "id": 234,
        "lat": 37.75127418206904,
        "lng": -122.43503093719482,
        "spaces": 2,
        "free": true,
        "address": "4144 24th Street, San Francisco, CA 94110, USA"
    },
    {
        "id": 236,
        "lat": 37.74728704926916,
        "lng": -122.4220061302185,
        "spaces": 2,
        "free": true,
        "address": "1499 Guerrero Street, San Francisco, CA 94110, USA"
    },
    {
        "id": 2,
        "lat": 37.76190265862991,
        "lng": -122.43512749671936,
        "spaces": 6,
        "free": false,
        "address": "436 Castro Street, San Francisco, CA 94114, USA"
    },
    {
        "id": 276,
        "lat": 37.76211470367867,
        "lng": -122.43514895439148,
        "spaces": 6,
        "free": false,
        "address": "Castro St & Market St, Castro Street, San Francisco, CA 94114, USA"
    },
    {
        "id": 159,
        "lat": 37.76662687821001,
        "lng": -122.42876529693604,
        "spaces": 2,
        "free": false,
        "address": "259 Church Street, San Francisco, CA 94114, USA"
    },
    {
        "id": 161,
        "lat": 37.768249,
        "lng": -122.426612,
        "spaces": 3,
        "free": true,
        "address": "73 Dolores Street, San Francisco, CA 94110, USA"
    },
    {
        "id": 162,
        "lat": 37.76292895101701,
        "lng": -122.426598072052,
        "spaces": 2,
        "free": true,
        "address": "3619 17th Street, San Francisco, CA 94107, USA"
    },
    {
        "id": 160,
        "lat": 37.76883197614526,
        "lng": -122.42664098739624,
        "spaces": 4,
        "free": true,
        "address": "11 Dolores Street, San Francisco, CA 94103, USA"
    },
    {
        "id": 235,
        "lat": 37.74530188602822,
        "lng": -122.42455959320068,
        "spaces": 7,
        "free": true,
        "address": "1506 Dolores Street, San Francisco, CA 94131, USA"
    },
    {
        "id": 158,
        "lat": 37.76213166725632,
        "lng": -122.42966651916504,
        "spaces": 3,
        "free": true,
        "address": "290 Dorland Street, San Francisco, CA 94114, USA"
    },
    {
        "id": 3,
        "lat": 37.7693747593985,
        "lng": -122.431769371032,
        "spaces": 6,
        "free": true,
        "address": "500-530 Duboce Avenue, San Francisco, CA 94117, USA"
    },
    {
        "id": 4,
        "lat": 37.7600451180164,
        "lng": -122.438163757324,
        "address": "125 Eureka Street, San Francisco, CA 94114, USA"
    },
    {
        "id": 126,
        "lat": 37.770108,
        "lng": -122.424518,
        "spaces": 3,
        "free": true,
        "address": "65 Guerrero Street, San Francisco, CA 94110, USA"
    },
    {
        "id": 5,
        "lat": 37.7636922997558,
        "lng": -122.433636188507,
        "spaces": 6,
        "free": false,
        "address": "2325-2327 Market Street, San Francisco, CA 94114, USA"
    },
    {
        "id": 9,
        "lat": 37.7655921557447,
        "lng": -122.433378696441,
        "spaces": 2,
        "free": true,
        "address": "206 Noe Street, San Francisco, CA 94114, USA"
    },
    {
        "id": 10,
        "lat": 37.751189351693,
        "lng": -122.431833744049,
        "spaces": 6,
        "free": false,
        "address": "1101-1119 Noe Street, San Francisco, CA 94114, USA"
    },
    {
        "id": 11,
        "lat": 37.7522222,
        "lng": -122.431597,
        "spaces": 2,
        "free": true,
        "address": "485-499 Elizabeth Street, San Francisco, CA 94114, USA"
    },
    {
        "id": 6,
        "lat": 37.7646931228328,
        "lng": -122.433099746704,
        "spaces": 6,
        "free": false,
        "address": "281-299 Noe Street, San Francisco, CA 94114, USA"
    },
    {
        "id": 7,
        "lat": 37.7634208877735,
        "lng": -122.433142662048,
        "spaces": 4,
        "free": true,
        "address": "340 Noe Street, San Francisco, CA 94114, USA"
    },
    {
        "id": 129,
        "lat": 37.80056961771293,
        "lng": -122.41061210632324,
        "spaces": 8,
        "free": false,
        "address": "601-671 Columbus Avenue, San Francisco, CA 94133, USA"
    },
    {
        "id": 13,
        "lat": 37.7989165104629,
        "lng": -122.408198118209,
        "spaces": 6,
        "free": false,
        "address": "400-450 Barbary Coast Trail, San Francisco, CA 94133, USA"
    },
    {
        "id": 15,
        "lat": 37.7998659919698,
        "lng": -122.408230304718,
        "spaces": 6,
        "free": false,
        "address": "2-24 Jasper, San Francisco, CA 94133, USA"
    },
    {
        "id": 16,
        "lat": 37.8001118378707,
        "lng": -122.404164075851,
        "spaces": 9,
        "free": true,
        "address": "273-299 Green Street, San Francisco, CA 94133, USA"
    },
    {
        "id": 14,
        "lat": 37.799403,
        "lng": -122.403402,
        "spaces": 6,
        "free": false,
        "address": "362 Vallejo Street, San Francisco, CA 94133, USA"
    },
    {
        "id": 17,
        "lat": 37.7973396659964,
        "lng": -122.40359544754,
        "spaces": 6,
        "free": false,
        "address": "480 Pacific Avenue, San Francisco, CA 94133, USA"
    },
    {
        "id": 128,
        "lat": 37.80615599868537,
        "lng": -122.41536498069763,
        "spaces": 5,
        "free": false,
        "address": "2552-2598 Taylor Street, San Francisco, CA 94133, USA"
    },
    {
        "id": 172,
        "lat": 37.80257872902474,
        "lng": -122.40651369094849,
        "spaces": 2,
        "free": true,
        "address": "167-195 Telegraph Hill Boulevard, San Francisco, CA 94133, USA"
    },
    {
        "id": 18,
        "lat": 37.798721526143,
        "lng": -122.407661676406,
        "spaces": 10,
        "free": false,
        "address": "611 Vallejo Street, San Francisco, CA 94133, USA"
    },
    {
        "id": 242,
        "lat": 37.77505678240509,
        "lng": -122.44121074676514,
        "spaces": 1,
        "free": true,
        "address": "420-498 Baker Street, San Francisco, CA 94117, USA"
    },
    {
        "id": 243,
        "lat": 37.77634577760317,
        "lng": -122.44485855102539,
        "spaces": 4,
        "free": true,
        "address": "715 Central Avenue, San Francisco, CA 94118, USA"
    },
    {
        "id": 20,
        "lat": 37.7803143848498,
        "lng": -122.418165206909,
        "spaces": 13,
        "free": false,
        "address": "367-399 McAllister Street, San Francisco, CA 94102, USA"
    },
    {
        "id": 21,
        "lat": 37.7798225604751,
        "lng": -122.418444156646,
        "spaces": 6,
        "free": false,
        "address": "400 Doctor Carlton B Goodlett Place, San Francisco, CA 94102, USA"
    },
    {
        "id": 22,
        "lat": 37.776517,
        "lng": -122.418814,
        "spaces": 10,
        "free": false,
        "address": "50 Fell Street, San Francisco, CA 94102, USA"
    },
    {
        "id": 277,
        "lat": 37.773962814902774,
        "lng": -122.43801355361938,
        "spaces": 1,
        "free": true,
        "address": "1201-1231 Fell Street, San Francisco, CA 94117, USA"
    },
    {
        "id": 23,
        "lat": 37.7764644997147,
        "lng": -122.431232929229,
        "spaces": 6,
        "free": true,
        "address": "722 Fillmore Street, San Francisco, CA 94117, USA"
    },
    {
        "id": 195,
        "lat": 37.77604049129784,
        "lng": -122.4209976196289,
        "spaces": 2,
        "free": false,
        "address": "150 Franklin Street, San Francisco, CA 94102, USA"
    },
    {
        "id": 26,
        "lat": 37.7791950556599,
        "lng": -122.421684265136,
        "spaces": 6,
        "free": false,
        "address": "466-530 Franklin Street, San Francisco, CA 94102, USA"
    },
    {
        "id": 24,
        "lat": 37.7772955491576,
        "lng": -122.42131948471,
        "address": "300 Franklin Street, San Francisco, CA 94102, USA"
    },
    {
        "id": 25,
        "lat": 37.7798056009555,
        "lng": -122.415322065353,
        "spaces": 3,
        "free": false,
        "address": "48 Fulton Street, San Francisco, CA 94117, USA"
    },
    {
        "id": 189,
        "lat": 37.78201030587168,
        "lng": -122.41419553756714,
        "spaces": 6,
        "free": false,
        "address": "220 Golden Gate Avenue, San Francisco, CA 94102, USA"
    },
    {
        "id": 27,
        "lat": 37.7811284317964,
        "lng": -122.420160770416,
        "spaces": 2,
        "free": false,
        "address": "558-598 Golden Gate Avenue, San Francisco, CA 94102, USA"
    },
    {
        "id": 28,
        "lat": 37.7814845745164,
        "lng": -122.417328357696,
        "spaces": 16,
        "free": false,
        "address": "400-450 Golden Gate Avenue, San Francisco, CA 94102, USA"
    },
    {
        "id": 241,
        "lat": 37.774785412131244,
        "lng": -122.44054555892944,
        "spaces": 1,
        "free": true,
        "address": "1458 Hayes Street, San Francisco, CA 94117, USA"
    },
    {
        "id": 240,
        "lat": 37.77488717610065,
        "lng": -122.43919372558594,
        "spaces": 2,
        "free": true,
        "address": "1396 Hayes Street, San Francisco, CA 94117, USA"
    },
    {
        "id": 29,
        "lat": 37.7770072269398,
        "lng": -122.422499656677,
        "spaces": 4,
        "free": false,
        "address": "370 Hayes Street, San Francisco, CA 94102, USA"
    },
    {
        "id": 30,
        "lat": 37.7810775541249,
        "lng": -122.415354251861,
        "spaces": 31,
        "free": false,
        "address": "76 Hyde Street, UC Hastings College of the Law, San Francisco, CA 94102, USA"
    },
    {
        "id": 248,
        "lat": 37.77400521704548,
        "lng": -122.42735981941223,
        "address": "386 Lily Street, San Francisco, CA 94102, USA"
    },
    {
        "id": 194,
        "lat": 37.77378472563779,
        "lng": -122.42052555084229,
        "spaces": 6,
        "free": false,
        "address": "1621 Market Street, San Francisco, CA 94103, USA"
    },
    {
        "id": 190,
        "lat": 37.78084012452816,
        "lng": -122.41398096084595,
        "spaces": 9,
        "free": false,
        "address": "101-153 McAllister Street, San Francisco, CA 94102, USA"
    },
    {
        "id": 31,
        "lat": 37.780649,
        "lng": -122.420219,
        "spaces": 4,
        "free": false,
        "address": "180 Redwood Street, San Francisco, CA 94102, USA"
    },
    {
        "id": 32,
        "lat": 37.7753620727725,
        "lng": -122.420697212219,
        "spaces": 7,
        "free": false,
        "address": "392 Franklin Street, San Francisco, CA 94109, USA"
    },
    {
        "id": 191,
        "lat": 37.77551471748351,
        "lng": -122.42415189743042,
        "spaces": 6,
        "free": true,
        "address": "350-398 Octavia Street, San Francisco, CA 94102, USA"
    },
    {
        "id": 279,
        "lat": 37.772833,
        "lng": -122.423454,
        "spaces": 6,
        "free": true,
        "address": "71 Haight Street, San Francisco, CA 94102, USA"
    },
    {
        "id": 214,
        "lat": 37.77230911236875,
        "lng": -122.43689775466919,
        "spaces": 2,
        "free": true,
        "address": "978 Page Street, San Francisco, CA 94117, USA"
    },
    {
        "id": 193,
        "lat": 37.77434443331179,
        "lng": -122.4222207069397,
        "spaces": 7,
        "free": false,
        "address": "110 Gough Street, San Francisco, CA 94102, USA"
    },
    {
        "id": 33,
        "lat": 37.7730045199922,
        "lng": -122.431597709655,
        "spaces": 2,
        "free": true,
        "address": "632 San Francisco Bicycle Route 32, San Francisco, CA 94117, USA"
    },
    {
        "id": 192,
        "lat": 37.77409002125797,
        "lng": -122.42325067520142,
        "spaces": 6,
        "free": false,
        "address": "144 San Francisco Bicycle Route 32, San Francisco, CA 94117, USA"
    },
    {
        "id": 34,
        "lat": 37.7728518700985,
        "lng": -122.433035373687,
        "spaces": 2,
        "free": true,
        "address": "738 Page Street, San Francisco, CA 94117, USA"
    },
    {
        "id": 35,
        "lat": 37.7722582286273,
        "lng": -122.433829307556,
        "spaces": 4,
        "free": true,
        "address": "230-298 Pierce Street, San Francisco, CA 94117, USA"
    },
    {
        "id": 212,
        "lat": 37.77621009495645,
        "lng": -122.43621110916138,
        "spaces": 4,
        "free": true,
        "address": "700-798 Scott Street, San Francisco, CA 94117, USA"
    },
    {
        "id": 37,
        "lat": 37.7780248297478,
        "lng": -122.433485984802,
        "spaces": 6,
        "free": true,
        "address": "943 Steiner Street, San Francisco, CA 94117, USA"
    },
    {
        "id": 38,
        "lat": 37.7787541031434,
        "lng": -122.433636188507,
        "spaces": 6,
        "free": true,
        "address": "1025 Steiner Street, San Francisco, CA 94117, USA"
    },
    {
        "id": 39,
        "lat": 37.7820951009013,
        "lng": -122.419302463531,
        "spaces": 12,
        "free": false,
        "address": "625 Turk Street, San Francisco, CA 94102, USA"
    },
    {
        "id": 213,
        "lat": 37.78009391225896,
        "lng": -122.43670463562012,
        "spaces": 2,
        "free": true,
        "address": "1600-1698 Turk Street, San Francisco, CA 94115, USA"
    },
    {
        "id": 41,
        "lat": 37.783206,
        "lng": -122.422296,
        "spaces": 8,
        "free": false,
        "address": "203-299 Willow Street, San Francisco, CA 94109, USA"
    },
    {
        "id": 40,
        "lat": 37.7837061879819,
        "lng": -122.418851852416,
        "spaces": 16,
        "free": false,
        "address": "2-98 Willow Street, San Francisco, CA 94109, USA"
    },
    {
        "id": 42,
        "lat": 37.78873424970606,
        "lng": -122.40062355995178,
        "spaces": 31,
        "free": false,
        "address": "55 2nd Street, San Francisco, CA 94105, USA"
    },
    {
        "id": 45,
        "lat": 37.7828921694251,
        "lng": -122.393531799316,
        "spaces": 6,
        "free": true,
        "address": "500 San Francisco Bicycle Route 11, San Francisco, CA 94107, USA"
    },
    {
        "id": 44,
        "lat": 37.7853681146973,
        "lng": -122.396557331085,
        "spaces": 4,
        "free": false,
        "address": "300-318 2nd Street, San Francisco, CA 94105, USA"
    },
    {
        "id": 43,
        "lat": 37.7866060562285,
        "lng": -122.398145198822,
        "spaces": 12,
        "free": false,
        "address": "2nd St & Howard St, San Francisco, CA 94105, USA"
    },
    {
        "id": 146,
        "lat": 37.78002607440637,
        "lng": -122.39406824111938,
        "spaces": 4,
        "free": false,
        "address": "601 3rd Street, San Francisco, CA 94103, USA"
    },
    {
        "id": 275,
        "lat": 37.78236644434258,
        "lng": -122.40166425704956,
        "spaces": 5,
        "free": false,
        "address": "266 4th Street, San Francisco, CA 94103, USA"
    },
    {
        "id": 141,
        "lat": 37.78292608704408,
        "lng": -122.40232944488525,
        "spaces": 8,
        "free": false,
        "address": "200-240 4th Street, San Francisco, CA 94103, USA"
    },
    {
        "id": 143,
        "lat": 37.78123018703442,
        "lng": -122.40018367767334,
        "spaces": 2,
        "free": false,
        "address": "100-150 Clara Street, San Francisco, CA 94107, USA"
    },
    {
        "id": 149,
        "lat": 37.77670194336603,
        "lng": -122.39413261413574,
        "spaces": 5,
        "free": false,
        "address": "298 King Street, San Francisco, CA 94107, USA"
    },
    {
        "id": 152,
        "lat": 37.782095100901344,
        "lng": -122.40576267242432,
        "spaces": 8,
        "free": false,
        "address": "132-168 5th Street, San Francisco, CA 94103, USA"
    },
    {
        "id": 153,
        "lat": 37.776752824049225,
        "lng": -122.40342378616333,
        "spaces": 6,
        "free": true,
        "address": "424-434 6th Street, San Francisco, CA 94103, USA"
    },
    {
        "id": 48,
        "lat": 37.791303262172,
        "lng": -122.395977973937,
        "spaces": 12,
        "free": false,
        "address": "77 Beale Street, San Francisco, CA 94105, USA"
    },
    {
        "id": 132,
        "lat": 37.790056920744355,
        "lng": -122.394357919693,
        "spaces": 2,
        "free": false,
        "address": "195 Beale Street, San Francisco, CA 94105, USA"
    },
    {
        "id": 46,
        "lat": 37.7974074879565,
        "lng": -122.400934696197,
        "spaces": 14,
        "free": false,
        "address": "645 Battery Street, San Francisco, CA 94111, USA"
    },
    {
        "id": 47,
        "lat": 37.7962714619115,
        "lng": -122.400505542755,
        "spaces": 25,
        "free": false,
        "address": "550 Battery Street, San Francisco, CA 94111, USA"
    },
    {
        "id": 155,
        "lat": 37.7963053733897,
        "lng": -122.40063428878784,
        "spaces": 25,
        "free": false,
        "address": "555 Battery Street, San Francisco, CA 94111, USA"
    },
    {
        "id": 278,
        "lat": 37.78142521751564,
        "lng": -122.39256620407104,
        "spaces": 3,
        "free": false,
        "address": "1-35 Stanford Street, San Francisco, CA 94107, USA"
    },
    {
        "id": 49,
        "lat": 37.794771,
        "lng": -122.402834,
        "spaces": 24,
        "free": false,
        "address": "550-598 Clay Street, San Francisco, CA 94111, USA"
    },
    {
        "id": 271,
        "lat": 37.794864,
        "lng": -122.40205,
        "spaces": 4,
        "free": false,
        "address": "526-548 Clay Street, San Francisco, CA 94111, USA"
    },
    {
        "id": 272,
        "lat": 37.79472,
        "lng": -122.401879,
        "spaces": 12,
        "free": false,
        "address": "525-545 Clay Street, San Francisco, CA 94111, USA"
    },
    {
        "id": 50,
        "lat": 37.794431740891,
        "lng": -122.401567697525,
        "spaces": 7,
        "free": false,
        "address": "501-509 Commercial Street, San Francisco, CA 94111, USA"
    },
    {
        "id": 51,
        "lat": 37.7960595148201,
        "lng": -122.396825551986,
        "spaces": 66,
        "free": false,
        "address": "218-298 Drumm Street, San Francisco, CA 94111, USA"
    },
    {
        "id": 52,
        "lat": 37.7871995824848,
        "lng": -122.394626140594,
        "spaces": 12,
        "free": false,
        "address": "501 Folsom Street, San Francisco, CA 94105, USA"
    },
    {
        "id": 287,
        "lat": 37.790069,
        "lng": -122.390998,
        "spaces": 4,
        "free": false,
        "address": "101-167 Folsom Street, San Francisco, CA 94105, USA"
    },
    {
        "id": 53,
        "lat": 37.7905571555436,
        "lng": -122.396900653839,
        "spaces": 11,
        "free": false,
        "address": "50-98 Fremont Street, San Francisco, CA 94105, USA"
    },
    {
        "id": 133,
        "lat": 37.78815769338271,
        "lng": -122.39371418952942,
        "spaces": 3,
        "free": false,
        "address": "250 Fremont Street, San Francisco, CA 94105, USA"
    },
    {
        "id": 283,
        "lat": 37.78864946229359,
        "lng": -122.39433646202087,
        "spaces": 5,
        "free": false,
        "address": "215 Fremont Street #215, San Francisco, CA 94105, USA"
    },
    {
        "id": 54,
        "lat": 37.7925495825769,
        "lng": -122.3985850811,
        "spaces": 3,
        "free": false,
        "address": "104 Front Street, San Francisco, CA 94111, USA"
    },
    {
        "id": 131,
        "lat": 37.79358392776529,
        "lng": -122.39876747131348,
        "spaces": 7,
        "free": false,
        "address": "212-234 Front Street, San Francisco, CA 94111, USA"
    },
    {
        "id": 273,
        "lat": 37.793496,
        "lng": -122.401429,
        "spaces": 7,
        "free": false,
        "address": "201-299 Halleck Street, San Francisco, CA 94104, USA"
    },
    {
        "id": 154,
        "lat": 37.77618,
        "lng": -122.40389,
        "spaces": 12,
        "free": true,
        "address": "272-298 Harriet Street, San Francisco, CA 94103, USA"
    },
    {
        "id": 144,
        "lat": 37.782790416475244,
        "lng": -122.39698648452759,
        "spaces": 6,
        "free": false,
        "address": "685 Harrison Street, San Francisco, CA 94110, USA"
    },
    {
        "id": 56,
        "lat": 37.7849271990068,
        "lng": -122.398005723953,
        "spaces": 20,
        "free": false,
        "address": "95 Hawthorne Street, San Francisco, CA 94105, USA"
    },
    {
        "id": 127,
        "lat": 37.807632,
        "lng": -122.420937,
        "spaces": 6,
        "free": false,
        "address": "500 Jefferson Street, Golden Gate National Recreation Area, San Francisco Maritime National Historical Park, San Francisco, CA 94109, USA"
    },
    {
        "id": 139,
        "lat": 37.78687738310861,
        "lng": -122.40230798721313,
        "spaces": 5,
        "free": false,
        "address": "165 Jessie Street, San Francisco, CA 94105, USA"
    },
    {
        "id": 270,
        "lat": 37.78479789150266,
        "lng": -122.40490436553955,
        "spaces": 16,
        "free": false,
        "address": "308 Jessie Street, San Francisco, CA 94103, USA"
    },
    {
        "id": 151,
        "lat": 37.78323134491339,
        "lng": -122.40743637084961,
        "spaces": 8,
        "free": false,
        "address": "40 5th Street, San Francisco, CA 94103, USA"
    },
    {
        "id": 57,
        "lat": 37.7881068205499,
        "lng": -122.400891780853,
        "spaces": 34,
        "free": false,
        "address": "100-134 Jessie Street, San Francisco, CA 94105, USA"
    },
    {
        "id": 58,
        "lat": 37.7849187198332,
        "lng": -122.39893913269,
        "spaces": 52,
        "free": true,
        "address": "Kaplan Lane, San Francisco, CA 94103, USA"
    },
    {
        "id": 291,
        "lat": 37.79280662899016,
        "lng": -122.3960340953835,
        "spaces": 41,
        "free": false,
        "address": "9 Main Street, San Francisco, CA 94105, USA"
    },
    {
        "id": 60,
        "lat": 37.79262717427988,
        "lng": -122.3960254647882,
        "spaces": 52,
        "free": false,
        "address": "8 Main Street, San Francisco, CA 94105, USA"
    },
    {
        "id": 59,
        "lat": 37.7904638916853,
        "lng": -122.39322066307,
        "spaces": 48,
        "free": false,
        "address": "211 Main Street, San Francisco, CA 94105, USA"
    },
    {
        "id": 282,
        "lat": 37.78217989583374,
        "lng": -122.40728616714478,
        "spaces": 8,
        "free": false,
        "address": "932 Mission Street, San Francisco, CA 94105, USA"
    },
    {
        "id": 61,
        "lat": 37.7916254422507,
        "lng": -122.395377159118,
        "spaces": 61,
        "free": false,
        "address": "250 Mission Street, San Francisco, CA 94105, USA"
    },
    {
        "id": 244,
        "lat": 37.788847,
        "lng": -122.396701,
        "spaces": 8,
        "free": false,
        "address": "166-198 1st Street, San Francisco, CA 94105, USA"
    },
    {
        "id": 138,
        "lat": 37.787318287164034,
        "lng": -122.40046262741089,
        "spaces": 5,
        "free": false,
        "address": "114 New Montgomery Street, San Francisco, CA 94105, USA"
    },
    {
        "id": 62,
        "lat": 37.7975770425843,
        "lng": -122.401664257049,
        "spaces": 11,
        "free": false,
        "address": "394 Pacific Avenue, San Francisco, CA 94109, USA"
    },
    {
        "id": 147,
        "lat": 37.7801278311619,
        "lng": -122.39544153213501,
        "spaces": 8,
        "free": true,
        "address": "254 Ritch Street, San Francisco, CA 94107, USA"
    },
    {
        "id": 148,
        "lat": 37.780717,
        "lng": -122.396556,
        "spaces": 4,
        "free": false,
        "address": "527 Bryant Street, San Francisco, CA 94110, USA"
    },
    {
        "id": 140,
        "lat": 37.79342284217152,
        "lng": -122.40134239196777,
        "spaces": 7,
        "free": false,
        "address": "309-341 Sansome Street, San Francisco, CA 94104, USA"
    },
    {
        "id": 63,
        "lat": 37.7908115109224,
        "lng": -122.400569915771,
        "spaces": 52,
        "free": false,
        "address": "2-98 Sansome Street, San Francisco, CA 94104, USA"
    },
    {
        "id": 64,
        "lat": 37.7951693303964,
        "lng": -122.401428222656,
        "spaces": 5,
        "address": "500 Sansome Street, San Francisco, CA 94111, USA"
    },
    {
        "id": 65,
        "lat": 37.7933550165532,
        "lng": -122.394969463348,
        "spaces": 61,
        "free": false,
        "address": "45-99 Spear Street, San Francisco, CA 94105, USA"
    },
    {
        "id": 137,
        "lat": 37.79204130643789,
        "lng": -122.3914512029367,
        "spaces": 2,
        "free": false,
        "address": "1-49 Howard Street, San Francisco, CA 94105, USA"
    },
    {
        "id": 142,
        "lat": 37.78211205989562,
        "lng": -122.40312337875366,
        "spaces": 5,
        "free": true,
        "address": "328 Tehama Street, Yerba Buena Square Shopping Center, San Francisco, CA 94103, USA"
    },
    {
        "id": 145,
        "lat": 37.78034830365159,
        "lng": -122.39089250564575,
        "spaces": 5,
        "free": false,
        "address": "101 Townsend Street #270, San Francisco, CA 94119, USA"
    },
    {
        "id": 150,
        "lat": 37.77509070361927,
        "lng": -122.39758729934692,
        "spaces": 10,
        "free": true,
        "address": "410 Townsend Street, San Francisco, CA 94107, USA"
    },
    {
        "id": 171,
        "lat": 37.79562714086835,
        "lng": -122.40290880203247,
        "spaces": 13,
        "free": false,
        "address": "584 Washington Street, San Francisco, CA 94111, USA"
    },
    {
        "id": 156,
        "lat": 37.79593234627349,
        "lng": -122.40134239196777,
        "spaces": 26,
        "free": false,
        "address": "444 Washington Street, San Francisco, CA 94133, USA"
    },
    {
        "id": 66,
        "lat": 37.7960849485032,
        "lng": -122.400012016296,
        "spaces": 33,
        "free": false,
        "address": "142-498 Washington Street, San Francisco, CA 94111, USA"
    },
    {
        "id": 258,
        "lat": 37.791701747853054,
        "lng": -122.39179372787476,
        "free": false,
        "address": "75 Howard Street, San Francisco, CA 94105, USA"
    },
    {
        "id": 268,
        "lat": 37.77506526271009,
        "lng": -122.40627765655518,
        "free": false,
        "address": "Bayshore Freeway, San Francisco, CA 94103, USA"
    },
    {
        "id": 249,
        "lat": 37.79253262597779,
        "lng": -122.40364909172058,
        "free": false,
        "address": "501-549 California Street, San Francisco, CA 94104, USA"
    },
    {
        "id": 250,
        "lat": 37.77959360663275,
        "lng": -122.41765022277832,
        "free": false,
        "address": "400 Doctor Carlton B Goodlett Place, San Francisco, CA 94102, USA"
    },
    {
        "id": 251,
        "lat": 37.791099779293255,
        "lng": -122.40317702293396,
        "free": false,
        "address": "350 Bush Street, San Francisco, CA 94104, USA"
    },
    {
        "id": 252,
        "lat": 37.768178934763505,
        "lng": -122.43544936180115,
        "free": false,
        "address": "61-87 Castro Street, San Francisco, CA 94114, USA"
    },
    {
        "id": 253,
        "lat": 37.786868904158666,
        "lng": -122.40699648857117,
        "free": false,
        "address": "101 Stockton Street, San Francisco, CA 94108, USA"
    },
    {
        "id": 254,
        "lat": 37.78318894806246,
        "lng": -122.40511894226074,
        "free": false,
        "address": "310-338 Minna Street, San Francisco, CA 94103, USA"
    },
    {
        "id": 255,
        "lat": 37.79550844953692,
        "lng": -122.40369200706482,
        "free": false,
        "address": "611-699 Washington Street, San Francisco, CA 94111, USA"
    },
    {
        "id": 256,
        "lat": 37.79541519192846,
        "lng": -122.398681640625,
        "free": false,
        "address": "262-264 Clay Street, San Francisco, CA 94111, USA"
    },
    {
        "id": 257,
        "lat": 37.777914590120155,
        "lng": -122.41406679153442,
        "free": false,
        "address": "50 8th Street, San Francisco, CA 94103, USA"
    },
    {
        "id": 259,
        "lat": 37.78497807402849,
        "lng": -122.43031024932861,
        "free": false,
        "address": "1610 Geary Boulevard, Nihonmachi Mall Shopping Center, Japan Center, San Francisco, CA 94115, USA"
    },
    {
        "id": 262,
        "lat": 37.79984903704993,
        "lng": -122.43524551391602,
        "free": false,
        "address": "2055 Lombard Street, San Francisco, CA 94123, USA"
    },
    {
        "id": 263,
        "lat": 37.756796430299374,
        "lng": -122.41984963417053,
        "free": false,
        "address": "3245 21st Street, San Francisco, CA 94110, USA"
    },
    {
        "id": 264,
        "lat": 37.79844176513279,
        "lng": -122.40938901901245,
        "free": false,
        "address": "717-723 Vallejo Street, San Francisco, CA 94133, USA"
    },
    {
        "id": 261,
        "lat": 37.77805874960015,
        "lng": -122.42243528366089,
        "free": false,
        "address": "370 Grove Street, San Francisco, CA 94117, USA"
    },
    {
        "id": 265,
        "lat": 37.754565525566484,
        "lng": -122.40452885627747,
        "free": false,
        "address": "2500-2548 23rd Street, San Francisco, CA 94110, USA"
    },
    {
        "id": 266,
        "lat": 37.792176536497024,
        "lng": -122.4045181274414,
        "free": false,
        "address": "1 Bush Street #1700, San Francisco, CA 94104, USA"
    },
    {
        "id": 260,
        "lat": 37.7899975706282,
        "lng": -122.40918517112732,
        "free": false,
        "address": "701 Bush Street, San Francisco, CA 94104, USA"
    },
    {
        "id": 267,
        "lat": 37.78825943894311,
        "lng": -122.40766167640686,
        "free": false,
        "address": "Barbary Coast Trail, San Francisco, CA 94108, USA"
    },
    {
        "id": 227,
        "lat": 37.765371639249565,
        "lng": -122.45421409606934,
        "spaces": 4,
        "free": true,
        "address": "122 Willard Street, San Francisco, CA 94117, USA"
    },
    {
        "id": 225,
        "lat": 37.767390188782336,
        "lng": -122.4457597732544,
        "spaces": 2,
        "free": true,
        "address": "130 Frederick Street, San Francisco, CA 94117, USA"
    },
    {
        "id": 226,
        "lat": 37.765843,
        "lng": -122.457453,
        "spaces": 6,
        "free": true,
        "address": "775-779 Frederick Street, San Francisco, CA 94117, USA"
    },
    {
        "id": 224,
        "lat": 37.76995146223971,
        "lng": -122.44728326797485,
        "spaces": 4,
        "free": false,
        "address": "1511 Haight Street, San Francisco, CA 94117, USA"
    },
    {
        "id": 69,
        "lat": 37.7700532328624,
        "lng": -122.446210384368,
        "spaces": 3,
        "free": false,
        "address": "1445 Haight Street, San Francisco, CA 94117, USA"
    },
    {
        "id": 70,
        "lat": 37.7701889268082,
        "lng": -122.446210384368,
        "spaces": 3,
        "free": true,
        "address": "1432 Haight Street, San Francisco, CA 94117, USA"
    },
    {
        "id": 71,
        "lat": 37.7704603139527,
        "lng": -122.444064617156,
        "spaces": 7,
        "free": true,
        "address": "1312 Haight Street, San Francisco, CA 94117, USA"
    },
    {
        "id": 72,
        "lat": 37.7693577974821,
        "lng": -122.452476024627,
        "spaces": 11,
        "free": false,
        "address": "1816 Haight Street, San Francisco, CA 94117, USA"
    },
    {
        "id": 68,
        "lat": 37.7721394997611,
        "lng": -122.430953979492,
        "spaces": 12,
        "free": false,
        "address": "522 Haight Street, San Francisco, CA 94102, USA"
    },
    {
        "id": 125,
        "lat": 37.77147,
        "lng": -122.427502,
        "spaces": 2,
        "free": true,
        "address": "235 Waller Street, San Francisco, CA 94117, USA"
    },
    {
        "id": 73,
        "lat": 37.7644895666939,
        "lng": -122.457904815673,
        "spaces": 4,
        "address": "14-38 Irving Street, San Francisco, CA 94122, USA"
    },
    {
        "id": 222,
        "lat": 37.77083346965009,
        "lng": -122.44848489761353,
        "spaces": 2,
        "free": true,
        "address": "1698 Page Street, San Francisco, CA 94117, USA"
    },
    {
        "id": 74,
        "lat": 37.7630985847509,
        "lng": -122.459621429443,
        "spaces": 3,
        "free": false,
        "address": "530-598 Parnassus Avenue, San Francisco, CA 94122, USA"
    },
    {
        "id": 223,
        "lat": 37.76869627970943,
        "lng": -122.45020151138306,
        "spaces": 2,
        "free": true,
        "address": "1584 Waller Street, San Francisco, CA 94117, USA"
    },
    {
        "id": 216,
        "lat": 37.78355356018544,
        "lng": -122.43258476257324,
        "spaces": 10,
        "free": true,
        "address": "1500 Fillmore Street, San Francisco, CA 94115, USA"
    },
    {
        "id": 36,
        "lat": 37.7870978354651,
        "lng": -122.439966201782,
        "spaces": 3,
        "free": true,
        "address": "2685 Pine Street, San Francisco, CA 94104, USA"
    },
    {
        "id": 75,
        "lat": 37.7856394461224,
        "lng": -122.430095672607,
        "spaces": 5,
        "free": false,
        "address": "1706 Post Street, Japan Center, San Francisco, CA 94115, USA"
    },
    {
        "id": 76,
        "lat": 37.7853002816853,
        "lng": -122.432713508605,
        "spaces": 5,
        "free": false,
        "address": "1820-1898 Post Street, San Francisco, CA 94115, USA"
    },
    {
        "id": 217,
        "lat": 37.7853172399442,
        "lng": -122.44028806686401,
        "spaces": 5,
        "free": false,
        "address": "2400 Sutter Street, San Francisco, CA 94115, USA"
    },
    {
        "id": 215,
        "lat": 37.78426582053905,
        "lng": -122.43082523345947,
        "spaces": 2,
        "free": false,
        "address": "Zampa Lane, San Francisco, CA 94115, USA"
    },
    {
        "id": 280,
        "lat": 37.748799,
        "lng": -122.459628,
        "spaces": 3,
        "free": true,
        "address": "300 Laguna Honda Boulevard, San Francisco, CA 94116, USA"
    },
    {
        "id": 233,
        "lat": 37.75468428264667,
        "lng": -122.46402025222778,
        "spaces": 3,
        "free": true,
        "address": "1798 Laguna Honda Blvd, San Francisco, CA 94122, USA"
    },
    {
        "id": 220,
        "lat": 37.800222044388384,
        "lng": -122.43616819381714,
        "spaces": 4,
        "free": true,
        "address": "3333 Fillmore Street, San Francisco, CA 94123, USA"
    },
    {
        "id": 218,
        "lat": 37.802443094538226,
        "lng": -122.430739402771,
        "spaces": 2,
        "free": true,
        "address": "1549 Francisco Street, San Francisco, CA 94123, USA"
    },
    {
        "id": 176,
        "lat": 37.79822134662092,
        "lng": -122.42024660110474,
        "spaces": 2,
        "free": true,
        "address": "1280 Green Street, San Francisco, CA 94109, USA"
    },
    {
        "id": 178,
        "lat": 37.80117150911384,
        "lng": -122.4193024635315,
        "spaces": 1,
        "free": true,
        "address": "1186 Greenwich Street, San Francisco, CA 94109, USA"
    },
    {
        "id": 179,
        "lat": 37.802631,
        "lng": -122.421628,
        "spaces": 1,
        "free": true,
        "address": "1111 Chestnut Street, San Francisco, CA 94109, USA"
    },
    {
        "id": 177,
        "lat": 37.799391252741934,
        "lng": -122.42086887359619,
        "spaces": 2,
        "free": true,
        "address": "2325-2335 Larkin Street, San Francisco, CA 94109, USA"
    },
    {
        "id": 219,
        "lat": 37.80308735613073,
        "lng": -122.43000984191895,
        "spaces": 3,
        "free": true,
        "address": "3337 Octavia Street, San Francisco, CA 94123, USA"
    },
    {
        "id": 77,
        "lat": 37.8001372701586,
        "lng": -122.439579963684,
        "spaces": 9,
        "free": false,
        "address": "3251 Pierce Street, San Francisco, CA 94123, USA"
    },
    {
        "id": 221,
        "lat": 37.79689882173807,
        "lng": -122.43685483932495,
        "spaces": 2,
        "free": false,
        "address": "2285 Union Street, San Francisco, CA 94123, USA"
    },
    {
        "id": 79,
        "lat": 37.7983908993807,
        "lng": -122.426040172576,
        "spaces": 2,
        "free": false,
        "address": "1618 Union Street, San Francisco, CA 94123, USA"
    },
    {
        "id": 78,
        "lat": 37.7977805076241,
        "lng": -122.430953979492,
        "spaces": 5,
        "free": false,
        "address": "1700 Jackson Street, San Francisco, CA 94109, USA"
    },
    {
        "id": 80,
        "lat": 37.798509586081,
        "lng": -122.425203323364,
        "spaces": 3,
        "free": false,
        "address": "1572 Union Street, San Francisco, CA 94123, USA"
    },
    {
        "id": 173,
        "lat": 37.79667839862233,
        "lng": -122.42498874664307,
        "spaces": 2,
        "free": false,
        "address": "1632 Vallejo Street, San Francisco, CA 94123, USA"
    },
    {
        "id": 175,
        "lat": 37.79730575499307,
        "lng": -122.41968870162964,
        "spaces": 6,
        "free": true,
        "address": "1348 Vallejo Street, San Francisco, CA 94109, USA"
    },
    {
        "id": 174,
        "lat": 37.797068377533414,
        "lng": -122.4213194847107,
        "spaces": 2,
        "free": true,
        "address": "1456 Vallejo Street, San Francisco, CA 94133, USA"
    },
    {
        "id": 85,
        "lat": 37.7649645301465,
        "lng": -122.423121929168,
        "spaces": 12,
        "free": false,
        "address": "85-99 Albion Street, San Francisco, CA 94103, USA"
    },
    {
        "id": 166,
        "lat": 37.76389585808897,
        "lng": -122.41486072540283,
        "spaces": 7,
        "free": true,
        "address": "2047 Folsom Street, San Francisco, CA 94110, USA"
    },
    {
        "id": 84,
        "lat": 37.7600620820686,
        "lng": -122.422242164611,
        "spaces": 3,
        "free": true,
        "address": "3532-3536 19th Street, San Francisco, CA 94110, USA"
    },
    {
        "id": 164,
        "lat": 37.76379407899244,
        "lng": -122.41850852966309,
        "spaces": 10,
        "free": true,
        "address": "3248 17th Street, San Francisco, CA 94110, USA"
    },
    {
        "id": 167,
        "lat": 37.7560436135038,
        "lng": -122.42255330085754,
        "spaces": 5,
        "free": true,
        "address": "30 Hill Street, San Francisco, CA 94114, USA"
    },
    {
        "id": 168,
        "lat": 37.75677098309616,
        "lng": -122.41891622543335,
        "spaces": 2,
        "free": false,
        "address": "2522 Mission Street, San Francisco, CA 94110, USA"
    },
    {
        "id": 165,
        "lat": 37.763505704124995,
        "lng": -122.41621255874634,
        "spaces": 6,
        "free": true,
        "address": "307 Shotwell Street, San Francisco, CA 94110, USA"
    },
    {
        "id": 163,
        "lat": 37.76613496277764,
        "lng": -122.42217779159546,
        "spaces": 18,
        "free": false,
        "address": "422 Valencia Street, San Francisco, CA 94103, USA"
    },
    {
        "id": 81,
        "lat": 37.7628441340041,
        "lng": -122.421791553497,
        "spaces": 8,
        "free": false,
        "address": "660-662 Valencia Street, San Francisco, CA 94110, USA"
    },
    {
        "id": 82,
        "lat": 37.7611986647087,
        "lng": -122.421491146087,
        "spaces": 6,
        "free": false,
        "address": "739 Valencia Street, San Francisco, CA 94103, USA"
    },
    {
        "id": 83,
        "lat": 37.7580772615525,
        "lng": -122.42131948471,
        "spaces": 8,
        "free": false,
        "address": "922-928 Valencia Street, San Francisco, CA 94110, USA"
    },
    {
        "id": 237,
        "lat": 37.75386994455459,
        "lng": -122.41559028625488,
        "spaces": 2,
        "free": true,
        "address": "3159 23rd Street, San Francisco, CA 94110, USA"
    },
    {
        "id": 238,
        "lat": 37.752427865527316,
        "lng": -122.41599798202515,
        "spaces": 6,
        "free": false,
        "address": "3184 24th Street, San Francisco, CA 94110, USA"
    },
    {
        "id": 269,
        "lat": 37.752563,
        "lng": -122.412489,
        "spaces": 3,
        "free": false,
        "address": "2-6 Balmy Street, San Francisco, CA 94110, USA"
    },
    {
        "id": 239,
        "lat": 37.75300470051097,
        "lng": -122.41320848464966,
        "spaces": 7,
        "free": false,
        "address": "1070 Treat Avenue, San Francisco, CA 94110, USA"
    },
    {
        "id": 169,
        "lat": 37.790104,
        "lng": -122.409686,
        "spaces": 8,
        "free": false,
        "address": "734-750 Bush Street, San Francisco, CA 94108, USA"
    },
    {
        "id": 86,
        "lat": 37.7919137074461,
        "lng": -122.411277294158,
        "spaces": 5,
        "free": true,
        "address": "1020-1044 California Street, San Francisco, CA 94108, USA"
    },
    {
        "id": 87,
        "lat": 37.7931854522353,
        "lng": -122.415869235992,
        "spaces": 4,
        "free": true,
        "address": "1390 Clay Street, San Francisco, CA 94109, USA"
    },
    {
        "id": 88,
        "lat": 37.7897601696868,
        "lng": -122.417306900024,
        "spaces": 5,
        "free": false,
        "address": "955 Hyde Street, San Francisco, CA 94109, USA"
    },
    {
        "id": 170,
        "lat": 37.79388066346596,
        "lng": -122.41292953491211,
        "spaces": 9,
        "free": true,
        "address": "1228-1234 Taylor Street, San Francisco, CA 94108, USA"
    },
    {
        "id": 89,
        "lat": 37.7894379814749,
        "lng": -122.41200685501,
        "spaces": 10,
        "free": false,
        "address": "740-750 Taylor Street, San Francisco, CA 94108, USA"
    },
    {
        "id": 286,
        "lat": 37.78828487531132,
        "lng": -122.42305755615234,
        "spaces": 5,
        "free": false,
        "address": "1565 Bush Street, San Francisco, CA 94104, USA"
    },
    {
        "id": 281,
        "lat": 37.79077759692252,
        "lng": -122.41890549659729,
        "spaces": 2,
        "free": false,
        "address": "1477-1499 California Street, San Francisco, CA 94109, USA"
    },
    {
        "id": 90,
        "lat": 37.7892344934595,
        "lng": -122.424194812774,
        "spaces": 3,
        "free": true,
        "address": "1700-1710 Pine Street, San Francisco, CA 94109, USA"
    },
    {
        "id": 182,
        "lat": 37.78663997214301,
        "lng": -122.41844415664673,
        "spaces": 5,
        "free": false,
        "address": "931 Larkin Street, San Francisco, CA 94109, USA"
    },
    {
        "id": 183,
        "lat": 37.78638560240496,
        "lng": -122.41775751113892,
        "spaces": 5,
        "free": true,
        "address": "882 Geary Street, San Francisco, CA 94109, USA"
    },
    {
        "id": 91,
        "lat": 37.794066,
        "lng": -122.42165,
        "spaces": 6,
        "free": false,
        "address": "1607 Jackson Street, San Francisco, CA 94109, USA"
    },
    {
        "id": 92,
        "lat": 37.78764,
        "lng": -122.418336,
        "spaces": 5,
        "free": false,
        "address": "1742 Polk Street, San Francisco, CA 94109, USA"
    },
    {
        "id": 93,
        "lat": 37.7852833234226,
        "lng": -122.421748638153,
        "spaces": 6,
        "free": false,
        "address": "1035 Van Ness Avenue, San Francisco, CA 94109, USA"
    },
    {
        "id": 185,
        "lat": 37.78584294403752,
        "lng": -122.42408752441406,
        "spaces": 6,
        "free": true,
        "address": "1-99 Peter Yorke Way, San Francisco, CA 94109, USA"
    },
    {
        "id": 97,
        "lat": 37.7895312466281,
        "lng": -122.421770095825,
        "spaces": 15,
        "free": false,
        "address": "1528-1598 Pine Street, San Francisco, CA 94109, USA"
    },
    {
        "id": 184,
        "lat": 37.78850532346908,
        "lng": -122.4202036857605,
        "spaces": 5,
        "free": false,
        "address": "1288 Polk Street, San Francisco, CA 94109, USA"
    },
    {
        "id": 186,
        "lat": 37.784282779035216,
        "lng": -122.41949558258057,
        "spaces": 2,
        "free": false,
        "address": "825 Polk Street, San Francisco, CA 94109, USA"
    },
    {
        "id": 94,
        "lat": 37.7870384829723,
        "lng": -122.419946193695,
        "spaces": 6,
        "free": false,
        "address": "1118 Polk Street, San Francisco, CA 94109, USA"
    },
    {
        "id": 95,
        "lat": 37.7966953542699,
        "lng": -122.422006130218,
        "spaces": 5,
        "free": false,
        "address": "2155 Polk Street, San Francisco, CA 94109, USA"
    },
    {
        "id": 96,
        "lat": 37.7930582787414,
        "lng": -122.421244382858,
        "address": "1749 Polk Street, San Francisco, CA 94109, USA"
    },
    {
        "id": 187,
        "lat": 37.78365531208477,
        "lng": -122.41902351379395,
        "spaces": 6,
        "free": false,
        "address": "2-98 Willow Street, San Francisco, CA 94109, USA"
    },
    {
        "id": 98,
        "lat": 37.7818746336218,
        "lng": -122.461059093475,
        "spaces": 3,
        "free": true,
        "address": "364-366 3rd Avenue, San Francisco, CA 94122, USA"
    },
    {
        "id": 232,
        "lat": 37.784471,
        "lng": -122.462339,
        "spaces": 2,
        "free": true,
        "address": "214 4th Avenue, San Francisco, CA 94118, USA"
    },
    {
        "id": 231,
        "lat": 37.783536601521924,
        "lng": -122.46346235275269,
        "spaces": 2,
        "free": true,
        "address": "269 5th Avenue, San Francisco, CA 94122, USA"
    },
    {
        "id": 229,
        "lat": 37.77705810741294,
        "lng": -122.46389150619507,
        "spaces": 1,
        "free": true,
        "address": "612 6th Avenue, San Francisco, CA 94118, USA"
    },
    {
        "id": 284,
        "lat": 37.773611,
        "lng": -122.463607,
        "spaces": 4,
        "free": true,
        "address": "3065-3099 Fulton Street, San Francisco, CA 94118, USA"
    },
    {
        "id": 228,
        "lat": 37.778652344496926,
        "lng": -122.46822595596313,
        "spaces": 2,
        "free": true,
        "address": "506 10th Avenue, San Francisco, CA 94118, USA"
    },
    {
        "id": 100,
        "lat": 37.7821459778724,
        "lng": -122.449429035186,
        "spaces": 5,
        "free": false,
        "address": "2835 Geary Boulevard, San Francisco, CA 94121, USA"
    },
    {
        "id": 99,
        "lat": 37.781314982959,
        "lng": -122.461702823638,
        "spaces": 10,
        "free": false,
        "address": "3936 Geary Boulevard, San Francisco, CA 94121, USA"
    },
    {
        "id": 230,
        "lat": 37.7831974274346,
        "lng": -122.45788335800171,
        "spaces": 2,
        "free": true,
        "address": "125 Palm Avenue, San Francisco, CA 94118, USA"
    },
    {
        "id": 101,
        "lat": 37.7780926694369,
        "lng": -122.492280006408,
        "spaces": 4,
        "free": true,
        "address": "587 32nd Avenue, San Francisco, CA 94116, USA"
    },
    {
        "id": 181,
        "lat": 37.79659362032577,
        "lng": -122.41507530212402,
        "spaces": 1,
        "free": true,
        "address": "1684-1694 Jones Street, San Francisco, CA 94109, USA"
    },
    {
        "id": 180,
        "lat": 37.79797,
        "lng": -122.413805,
        "spaces": 10,
        "free": true,
        "address": "1001 Vallejo Street, San Francisco, CA 94133, USA"
    },
    {
        "id": 102,
        "lat": 37.794628,
        "lng": -122.413068,
        "spaces": 6,
        "free": true,
        "address": "1314-1320 Taylor Street, San Francisco, CA 94108, USA"
    },
    {
        "id": 208,
        "lat": 37.77188508012014,
        "lng": -122.4020504951477,
        "spaces": 16,
        "free": true,
        "address": "1717 7th Street, San Francisco, CA 94103, USA"
    },
    {
        "id": 103,
        "lat": 37.7754468754286,
        "lng": -122.406299114227,
        "address": "400-412 7th Street, San Francisco, CA 94103, USA"
    },
    {
        "id": 104,
        "lat": 37.7754129543778,
        "lng": -122.410504817962,
        "spaces": 22,
        "free": false,
        "address": "275 8th Street, San Francisco, CA 94103, USA"
    },
    {
        "id": 285,
        "lat": 37.770197407671574,
        "lng": -122.40402460098267,
        "spaces": 3,
        "free": true,
        "address": "699 8th Street, San Francisco, CA 94103, USA"
    },
    {
        "id": 105,
        "lat": 37.7714610454397,
        "lng": -122.408874034881,
        "spaces": 8,
        "free": false,
        "address": "494 9th Street, San Francisco, CA 94103, USA"
    },
    {
        "id": 205,
        "lat": 37.774785412131244,
        "lng": -122.41305828094482,
        "spaces": 8,
        "free": false,
        "address": "218 9th Street, San Francisco, CA 94103, USA"
    },
    {
        "id": 106,
        "lat": 37.7720207707042,
        "lng": -122.409603595733,
        "spaces": 5,
        "free": false,
        "address": "434 Ninth Street, San Francisco, CA 94103, USA"
    },
    {
        "id": 107,
        "lat": 37.775473,
        "lng": -122.418424,
        "spaces": 12,
        "free": false,
        "address": "7-21 11th Street, San Francisco, CA 94103, USA"
    },
    {
        "id": 109,
        "lat": 37.7724956857877,
        "lng": -122.412285804748,
        "spaces": 4,
        "free": false,
        "address": "327,329 10th Street, San Francisco, CA 94103, USA"
    },
    {
        "id": 108,
        "lat": 37.7749041367486,
        "lng": -122.415397167205,
        "spaces": 8,
        "free": false,
        "address": "141 10th Street, San Francisco, CA 94103, USA"
    },
    {
        "id": 110,
        "lat": 37.771466,
        "lng": -122.413659,
        "spaces": 4,
        "free": false,
        "address": "330 11th Street, San Francisco, CA 94103, USA"
    },
    {
        "id": 204,
        "lat": 37.77135927675464,
        "lng": -122.4157190322876,
        "spaces": 4,
        "free": true,
        "address": "263-287 12th Street, San Francisco, CA 94103, USA"
    },
    {
        "id": 211,
        "lat": 37.766915240907736,
        "lng": -122.41299390792847,
        "spaces": 1,
        "free": true,
        "address": "1200 15th Street, San Francisco, CA 94103, USA"
    },
    {
        "id": 209,
        "lat": 37.766525102871746,
        "lng": -122.39889621734619,
        "spaces": 10,
        "free": true,
        "address": "485 Irwin Street, San Francisco, CA 94107, USA"
    },
    {
        "id": 210,
        "lat": 37.76627066391339,
        "lng": -122.4020504951477,
        "spaces": 14,
        "free": true,
        "address": "1580 16th Street, San Francisco, CA 94103, USA"
    },
    {
        "id": 274,
        "lat": 37.766302,
        "lng": -122.398934,
        "spaces": 10,
        "free": true,
        "address": "1201-1249 16th Street, San Francisco, CA 94107, USA"
    },
    {
        "id": 111,
        "lat": 37.7741578645579,
        "lng": -122.405076026916,
        "spaces": 15,
        "free": false,
        "address": "900-928 Bryant Street, San Francisco, CA 94103, USA"
    },
    {
        "id": 200,
        "lat": 37.769883615080076,
        "lng": -122.42183446884155,
        "spaces": 12,
        "free": true,
        "address": "91-95 Duboce Avenue, San Francisco, CA 94103, USA"
    },
    {
        "id": 206,
        "lat": 37.77471756940714,
        "lng": -122.41050481796265,
        "spaces": 5,
        "free": true,
        "address": "1220-1226 Folsom Street, San Francisco, CA 94103, USA"
    },
    {
        "id": 202,
        "lat": 37.77051119893143,
        "lng": -122.41265058517456,
        "spaces": 16,
        "free": true,
        "address": "1501-1565 Harrison Street, San Francisco, CA 94103, USA"
    },
    {
        "id": 112,
        "lat": 37.7722582286273,
        "lng": -122.410590648651,
        "spaces": 5,
        "free": true,
        "address": "1310 Harrison Street, San Francisco, CA 94103, USA"
    },
    {
        "id": 197,
        "lat": 37.773411584834484,
        "lng": -122.41552591323853,
        "spaces": 8,
        "free": false,
        "address": "1488 Howard Street, San Francisco, CA 94103, USA"
    },
    {
        "id": 207,
        "lat": 37.7766849831305,
        "lng": -122.4113416671753,
        "spaces": 4,
        "free": false,
        "address": "1180 Howard Street, San Francisco, CA 94103, USA"
    },
    {
        "id": 199,
        "lat": 37.771511929729805,
        "lng": -122.42116928100586,
        "spaces": 4,
        "free": true,
        "address": "37,35,33 San Francisco Bicycle Route 30, San Francisco, CA 94105, USA"
    },
    {
        "id": 201,
        "lat": 37.77071473849608,
        "lng": -122.41962432861328,
        "spaces": 2,
        "free": false,
        "address": "1673-1695 Mission Street, San Francisco, CA 94103, USA"
    },
    {
        "id": 203,
        "lat": 37.7709861237108,
        "lng": -122.41357326507568,
        "spaces": 2,
        "free": true,
        "address": "55 Norfolk Street, San Francisco, CA 94103, USA"
    },
    {
        "id": 198,
        "lat": 37.77113877745632,
        "lng": -122.41889476776123,
        "spaces": 5,
        "free": true,
        "address": "1-99 Plum Street, San Francisco, CA 94103, USA"
    },
    {
        "id": 114,
        "lat": 37.770375505577,
        "lng": -122.422521114349,
        "spaces": 4,
        "free": false,
        "address": "170-172 Valencia Street, San Francisco, CA 94103, USA"
    },
    {
        "id": 113,
        "lat": 37.7690524823224,
        "lng": -122.422199249267,
        "spaces": 2,
        "free": false,
        "address": "235-259 Valencia Street, San Francisco, CA 94103, USA"
    },
    {
        "id": 245,
        "lat": 37.72774,
        "lng": -122.476168,
        "spaces": 4,
        "free": true,
        "address": "3251 20th Avenue, San Francisco, CA 94132, USA"
    },
    {
        "id": 115,
        "lat": 37.7635905203791,
        "lng": -122.466230392456,
        "spaces": 2,
        "free": true,
        "address": "1326 9th Avenue, San Francisco, CA 94122, USA"
    },
    {
        "id": 247,
        "lat": 37.762145,
        "lng": -122.465426,
        "spaces": 2,
        "free": false,
        "address": "301-309 Judah Street, San Francisco, CA 94122, USA"
    },
    {
        "id": 116,
        "lat": 37.8016377596446,
        "lng": -122.401599884033,
        "spaces": 18,
        "free": false,
        "address": "1160 Battery Street, San Francisco, CA 94111, USA"
    },
    {
        "id": 117,
        "lat": 37.8012562821565,
        "lng": -122.40152478218,
        "spaces": 14,
        "free": false,
        "address": "1050 Battery Street, San Francisco, CA 94111, USA"
    },
    {
        "id": 188,
        "lat": 37.7851815737647,
        "lng": -122.41089105606079,
        "spaces": 10,
        "free": false,
        "address": "200-298 Ellis Street, San Francisco, CA 94102, USA"
    },
    {
        "id": 55,
        "lat": 37.7889038242392,
        "lng": -122.405322790145,
        "spaces": 6,
        "free": false,
        "address": "201-229 Grant Avenue, San Francisco, CA 94108, USA"
    },
    {
        "id": 118,
        "lat": 37.7872674137534,
        "lng": -122.404904365539,
        "spaces": 12,
        "free": false,
        "address": "2-40 Grant Avenue, San Francisco, CA 94108, USA"
    },
    {
        "id": 120,
        "lat": 37.7869028199525,
        "lng": -122.409796714782,
        "spaces": 10,
        "free": false,
        "address": "336 Mason Street, San Francisco, CA 94108, USA"
    },
    {
        "id": 134,
        "lat": 37.784537156011055,
        "lng": -122.4093246459961,
        "spaces": 4,
        "free": false,
        "address": "100-124 Mason Street, San Francisco, CA 94102, USA"
    },
    {
        "id": 135,
        "lat": 37.7851900529082,
        "lng": -122.40947484970093,
        "spaces": 6,
        "free": false,
        "address": "164-198 Mason Street, San Francisco, CA 94102, USA"
    },
    {
        "id": 121,
        "lat": 37.7876913577716,
        "lng": -122.413787841796,
        "spaces": 6,
        "free": false,
        "address": "720 Post Street, San Francisco, CA 94109, USA"
    },
    {
        "id": 123,
        "lat": 37.8031721269745,
        "lng": -122.402930259704,
        "spaces": 12,
        "free": false,
        "address": "150-198 Greenwich Street, San Francisco, CA 94111, USA"
    },
    {
        "id": 124,
        "lat": 37.8049014309497,
        "lng": -122.405236959457,
        "spaces": 9,
        "free": false,
        "address": "1701-1725 Montgomery Street, San Francisco, CA 94111, USA"
    },
    {
        "id": 122,
        "lat": 37.8009595760814,
        "lng": -122.399464845657,
        "spaces": 3,
        "free": false,
        "address": "1098 The Embarcadero, San Francisco, CA 94111, USA"
    }
]